{
"type": "FeatureCollection",
"name": "身障機構收容暨空位狀態_location",
"crs": { "type": "name", "properties": { "name": "urn:ogc:def:crs:OGC:1.3:CRS84" } },
"features": [
{ "type": "Feature", "properties": { "序號": 1, "行政區": "士林區", "屬性": "公立", "機構名稱": "臺北市立陽明教養院(華岡院區)", "機構類型": "住宿服務", "成人日間照顧床位數量": 0, "全日型住宿床位數量": 29, "早療日間照顧": 0, "夜間型住宿床位數量": 0, "緊急短期安置床位數量": 1, "地址": "臺北市士林區凱旋路61巷4弄9號", "Lng_X": 304569.628, "Lat": 2780859.037, "網址": "https://www.ym.gov.taipei/" }, "geometry": { "type": "Point", "coordinates": [ 121.541202961454758, 25.135171722106435 ] } },
{ "type": "Feature", "properties": { "序號": 2, "行政區": "北投區", "屬性": "公設民營", "機構名稱": "臺北市永明發展中心(兼辦早療服務)", "機構類型": "日間服務\n早期療育", "成人日間照顧床位數量": 0, "全日型住宿床位數量": 0, "早療日間照顧": 0, "夜間型住宿床位數量": 0, "緊急短期安置床位數量": 0, "地址": "臺北市北投區石牌路2段115號4-6F", "Lng_X": 302195.321, "Lat": 2778977.583, "網址": null }, "geometry": { "type": "Point", "coordinates": [ 121.517584595509717, 25.118270352959641 ] } },
{ "type": "Feature", "properties": { "序號": 3, "行政區": "中正區", "屬性": "公設民營", "機構名稱": "臺北市弘愛服務中心", "機構類型": "住宿服務\n日間服務", "成人日間照顧床位數量": 0, "全日型住宿床位數量": 2, "早療日間照顧": 0, "夜間型住宿床位數量": 0, "緊急短期安置床位數量": 3, "地址": "臺北市中正區濟南路2段46號4樓", "Lng_X": 303572.205, "Lat": 2770352.14, "網址": null }, "geometry": { "type": "Point", "coordinates": [ 121.530901801496668, 25.040352448006576 ] } },
{ "type": "Feature", "properties": { "序號": 4, "行政區": "中正區", "屬性": "公設民營", "機構名稱": "臺北市城中發展中心(兼辦早療服務)", "機構類型": "日間服務\n早期療育", "成人日間照顧床位數量": 0, "全日型住宿床位數量": 0, "早療日間照顧": 2, "夜間型住宿床位數量": 0, "緊急短期安置床位數量": 0, "地址": "臺北市中正區汀州路2段172號", "Lng_X": 302688.25, "Lat": 2768511.501, "網址": null }, "geometry": { "type": "Point", "coordinates": [ 121.522071749889093, 25.023766259993266 ] } },
{ "type": "Feature", "properties": { "序號": 5, "行政區": "南港區", "屬性": "公設民營", "機構名稱": "臺北市東明扶愛家園", "機構類型": "住宿/日間照顧服務", "成人日間照顧床位數量": 12, "全日型住宿床位數量": 2, "早療日間照顧": 0, "夜間型住宿床位數量": 0, "緊急短期安置床位數量": 3, "地址": "臺北市南港區南港路2段38巷8弄1號", "Lng_X": 310969.778, "Lat": 2772012.515, "網址": "https://ycswf.org.tw/service-location/" }, "geometry": { "type": "Point", "coordinates": [ 121.604282371626013, 25.055062003537817 ] } },
{ "type": "Feature", "properties": { "序號": 6, "行政區": "中山區", "屬性": "公設民營", "機構名稱": "臺北市博愛發展中心", "機構類型": "基河：日間服務(敬業三路160號)", "成人日間照顧床位數量": 0, "全日型住宿床位數量": 0, "早療日間照顧": 0, "夜間型住宿床位數量": 0, "緊急短期安置床位數量": 0, "地址": "臺北市中山區敬業三路160號", "Lng_X": 306150.467, "Lat": 2774702.217, "網址": "http://www.diyi.org.tw/" }, "geometry": { "type": "Point", "coordinates": [ 121.556628900276607, 25.079530943806635 ] } },
{ "type": "Feature", "properties": { "序號": 7, "行政區": "信義區", "屬性": "公設民營", "機構名稱": "臺北市恆愛發展中心", "機構類型": "日間服務", "成人日間照顧床位數量": 10, "全日型住宿床位數量": 0, "早療日間照顧": 0, "夜間型住宿床位數量": 0, "緊急短期安置床位數量": 0, "地址": "臺北市信義區松隆路36號6樓", "Lng_X": 307268.31, "Lat": 2770703.992, "網址": "http://www.diyi.org.tw/" }, "geometry": { "type": "Point", "coordinates": [ 121.567543535656597, 25.043393543941505 ] } },
{ "type": "Feature", "properties": { "序號": 8, "行政區": "文山區", "屬性": "公設民營", "機構名稱": "臺北市萬芳啟能中心", "機構類型": "日間服務", "成人日間照顧床位數量": 0, "全日型住宿床位數量": 0, "早療日間照顧": 0, "夜間型住宿床位數量": 0, "緊急短期安置床位數量": 0, "地址": "臺北市文山區萬美街1段51號1樓", "Lng_X": 307382.347, "Lat": 2766152.594, "網址": null }, "geometry": { "type": "Point", "coordinates": [ 121.568484331046463, 25.002299618391724 ] } },
{ "type": "Feature", "properties": { "序號": 9, "行政區": "文山區", "屬性": "公設民營", "機構名稱": "臺北市萬芳發展中心(兼辦早療服務)", "機構類型": "日間服務\n早期療育", "成人日間照顧床位數量": 0, "全日型住宿床位數量": 0, "早療日間照顧": 6, "夜間型住宿床位數量": 0, "緊急短期安置床位數量": 0, "地址": "臺北市文山區萬美街1段55號2樓", "Lng_X": 307345.293, "Lat": 2766157.284, "網址": "http://web.syinlu.org.tw/" }, "geometry": { "type": "Point", "coordinates": [ 121.568117447694547, 25.002343361825933 ] } },
{ "type": "Feature", "properties": { "序號": 10, "行政區": "文山區", "屬性": "公設民營", "機構名稱": "臺北市一壽照顧中心", "機構類型": "住宿服務", "成人日間照顧床位數量": 0, "全日型住宿床位數量": 9, "早療日間照顧": 0, "夜間型住宿床位數量": 0, "緊急短期安置床位數量": 0, "地址": "臺北市文山區一壽街22號3、4樓", "Lng_X": 306159.952, "Lat": 2763645.492, "網址": null }, "geometry": { "type": "Point", "coordinates": [ 121.556272696657132, 24.979711373980084 ] } },
{ "type": "Feature", "properties": { "序號": 11, "行政區": "中和區", "屬性": "公設民營", "機構名稱": "崇愛發展中心", "機構類型": "住宿服務\n日間服務", "成人日間照顧床位數量": 7, "全日型住宿床位數量": 0, "早療日間照顧": 0, "夜間型住宿床位數量": 0, "緊急短期安置床位數量": 0, "地址": "新北市中和區中和市圓通路143之1號", "Lng_X": null, "Lat": null, "網址": null }, "geometry": null },
{ "type": "Feature", "properties": { "序號": 12, "行政區": "士林區", "屬性": "公設民營", "機構名稱": "臺北市三玉啟能中心", "機構類型": "住宿服務", "成人日間照顧床位數量": 0, "全日型住宿床位數量": 0, "早療日間照顧": 0, "夜間型住宿床位數量": 0, "緊急短期安置床位數量": 0, "地址": "臺北市士林區忠誠路2段53巷7號3、4、7樓", "Lng_X": 303689.933, "Lat": 2778224.608, "網址": null }, "geometry": { "type": "Point", "coordinates": [ 121.53237567551669, 25.11142012284532 ] } },
{ "type": "Feature", "properties": { "序號": 13, "行政區": "中正區", "屬性": "公設民營", "機構名稱": "臺北市健軍團體家庭", "機構類型": "住宿服務", "成人日間照顧床位數量": 0, "全日型住宿床位數量": 0, "早療日間照顧": 0, "夜間型住宿床位數量": 0, "緊急短期安置床位數量": 0, "地址": "臺北市中正區汀州路3段60巷2弄6號", "Lng_X": 303555.186, "Lat": 2767610.779, "網址": null }, "geometry": { "type": "Point", "coordinates": [ 121.530626707743451, 25.015604153795472 ] } },
{ "type": "Feature", "properties": { "序號": 14, "行政區": "信義區", "屬性": "公設民營", "機構名稱": "臺北市三興團體家庭", "機構類型": "住宿服務", "成人日間照顧床位數量": 0, "全日型住宿床位數量": 0, "早療日間照顧": 0, "夜間型住宿床位數量": 0, "緊急短期安置床位數量": 2, "地址": "臺北市信義區吳興街156巷6號3樓", "Lng_X": 306632.405, "Lat": 2769108.498, "網址": null }, "geometry": { "type": "Point", "coordinates": [ 121.561176257446988, 25.02901351670593 ] } },
{ "type": "Feature", "properties": { "序號": 15, "行政區": "內湖區", "屬性": "公設民營", "機構名稱": "臺北市金龍發展中心", "機構類型": "日間服務\n住宿服務", "成人日間照顧床位數量": 7, "全日型住宿床位數量": 0, "早療日間照顧": 0, "夜間型住宿床位數量": 0, "緊急短期安置床位數量": 0, "地址": "臺北市內湖區金龍路136之1號", "Lng_X": 309513.599, "Lat": 2775409.541, "網址": null }, "geometry": { "type": "Point", "coordinates": [ 121.589997438740909, 25.085787747767306 ] } },
{ "type": "Feature", "properties": { "序號": 16, "行政區": "南港區", "屬性": "公設民營", "機構名稱": "臺北市南港養護中心", "機構類型": "住宿服務", "成人日間照顧床位數量": 0, "全日型住宿床位數量": 0, "早療日間照顧": 0, "夜間型住宿床位數量": 0, "緊急短期安置床位數量": 0, "地址": "臺北市南港區松河街550號1樓", "Lng_X": 310390.844, "Lat": 2772336.535, "網址": "https://ycswf.org.tw/" }, "geometry": { "type": "Point", "coordinates": [ 121.59855890992776, 25.058010431333216 ] } },
{ "type": "Feature", "properties": { "序號": 17, "行政區": "大同區", "屬性": "公設民營", "機構名稱": "臺北市大龍養護中心", "機構類型": "住宿服務", "成人日間照顧床位數量": 0, "全日型住宿床位數量": 5, "早療日間照顧": 0, "夜間型住宿床位數量": 0, "緊急短期安置床位數量": 1, "地址": "臺北市大同區民族西路105號1-3樓", "Lng_X": 302167.927, "Lat": 2773498.986, "網址": "https://www.eden.org.tw/branches_detail.php?detailId=JCU5OCMh&rePageUrl=L2JyYW5jaGVzLnBocD8mY2l0eV9pZD0xJnRlYW1faWQ9NA%3D%3D" }, "geometry": { "type": "Point", "coordinates": [ 121.517105016715064, 25.068811077803311 ] } },
{ "type": "Feature", "properties": { "序號": 18, "行政區": "士林區", "屬性": "公設民營", "機構名稱": "臺北市永福之家", "機構類型": "住宿服務", "成人日間照顧床位數量": 0, "全日型住宿床位數量": 4, "早療日間照顧": 0, "夜間型住宿床位數量": 0, "緊急短期安置床位數量": 2, "地址": "臺北市士林區莊頂路2號", "Lng_X": 305415.191, "Lat": 2778159.307, "網址": null }, "geometry": { "type": "Point", "coordinates": [ 121.549479646736245, 25.110768190947148 ] } },
{ "type": "Feature", "properties": { "序號": 19, "行政區": "士林區", "屬性": "私立", "機構名稱": "臺北市私立聖安娜之家", "機構類型": "日間服務\n住宿服務", "成人日間照顧床位數量": 0, "全日型住宿床位數量": 0, "早療日間照顧": 0, "夜間型住宿床位數量": 0, "緊急短期安置床位數量": 0, "地址": "臺北市士林區士林區中山北路7段181巷1號", "Lng_X": null, "Lat": null, "網址": "http://www.stanneshome.org.tw/" }, "geometry": null },
{ "type": "Feature", "properties": { "序號": 20, "行政區": "北投區", "屬性": "私立", "機構名稱": "臺北市私立育成裕民發展中心", "機構類型": "日間服務", "成人日間照顧床位數量": 0, "全日型住宿床位數量": 0, "早療日間照顧": 0, "夜間型住宿床位數量": 0, "緊急短期安置床位數量": 0, "地址": "臺北市北投區裕民一路41巷2弄18號", "Lng_X": 302291.652, "Lat": 2778806.122, "網址": null }, "geometry": { "type": "Point", "coordinates": [ 121.518533280374925, 25.116719087588645 ] } },
{ "type": "Feature", "properties": { "序號": 21, "行政區": "中山區", "屬性": "私立", "機構名稱": "臺北市私立陽光重建中心", "機構類型": "日間服務", "成人日間照顧床位數量": 41, "全日型住宿床位數量": 0, "早療日間照顧": 0, "夜間型住宿床位數量": 0, "緊急短期安置床位數量": 0, "地址": "臺北市中山區南京東路3段91號3樓", "Lng_X": 304380.742, "Lat": 2771662.697, "網址": null }, "geometry": { "type": "Point", "coordinates": [ 121.538965865296234, 25.052155214392307 ] } },
{ "type": "Feature", "properties": { "序號": 22, "行政區": "萬華區", "屬性": "私立", "機構名稱": "臺北市私立育仁啟能中心", "機構類型": "日間服務", "成人日間照顧床位數量": 4, "全日型住宿床位數量": 0, "早療日間照顧": 0, "夜間型住宿床位數量": 0, "緊急短期安置床位數量": 0, "地址": "臺北市萬華區柳州街41號4樓", "Lng_X": 300998.413, "Lat": 2770134.308, "網址": "http://www.kjswf.org.tw" }, "geometry": { "type": "Point", "coordinates": [ 121.505388206419966, 25.038474807597368 ] } },
{ "type": "Feature", "properties": { "序號": 23, "行政區": "萬華區", "屬性": "私立", "機構名稱": "臺北市私立育仁兒童發展中心(兼辦早療服務)", "機構類型": "日間服務\n早期療育", "成人日間照顧床位數量": 0, "全日型住宿床位數量": 0, "早療日間照顧": 0, "夜間型住宿床位數量": 0, "緊急短期安置床位數量": 0, "地址": "臺北市萬華區萬大路387巷15號", "Lng_X": 300428.634, "Lat": 2768322.697, "網址": null }, "geometry": { "type": "Point", "coordinates": [ 121.499675692056627, 25.022138678129142 ] } },
{ "type": "Feature", "properties": { "序號": 24, "行政區": "中正區", "屬性": "私立", "機構名稱": "臺北市私立創世清寒植物人安養院", "機構類型": "住宿服務", "成人日間照顧床位數量": 0, "全日型住宿床位數量": 2, "早療日間照顧": 0, "夜間型住宿床位數量": 0, "緊急短期安置床位數量": 0, "地址": "臺北市中正區北平東路28號2樓", "Lng_X": 303012.505, "Lat": 2770960.213, "網址": null }, "geometry": { "type": "Point", "coordinates": [ 121.525378736219238, 25.045861814226285 ] } },
{ "type": "Feature", "properties": { "序號": 25, "行政區": "中山區", "屬性": "私立", "機構名稱": "臺北市私立心路兒童發展中心(兼辦早療服務)", "機構類型": "日間服務\n早期療育", "成人日間照顧床位數量": 0, "全日型住宿床位數量": 0, "早療日間照顧": 1, "夜間型住宿床位數量": 0, "緊急短期安置床位數量": 0, "地址": "臺北市中山區復興北路232號", "Lng_X": 304878.577, "Lat": 2772226.808, "網址": null }, "geometry": { "type": "Point", "coordinates": [ 121.543922194537217, 25.057229971721007 ] } },
{ "type": "Feature", "properties": { "序號": 26, "行政區": "信義區", "屬性": "私立", "機構名稱": "臺北市私立第一兒童發展中心(兼辦早療服務)", "機構類型": "日間服務\n早期療育", "成人日間照顧床位數量": 0, "全日型住宿床位數量": 0, "早療日間照顧": 9, "夜間型住宿床位數量": 0, "緊急短期安置床位數量": 0, "地址": "臺北市信義區信義路5段150巷316號", "Lng_X": 307483.804, "Lat": 2768879.037, "網址": null }, "geometry": { "type": "Point", "coordinates": [ 121.569602967193802, 25.026909874651018 ] } },
{ "type": "Feature", "properties": { "序號": 27, "行政區": "文山區", "屬性": "私立", "機構名稱": "臺北市私立心路社區家園", "機構類型": "住宿服務", "成人日間照顧床位數量": 0, "全日型住宿床位數量": 0, "早療日間照顧": 0, "夜間型住宿床位數量": 0, "緊急短期安置床位數量": 0, "地址": "臺北市文山區福興路63巷4弄29號", "Lng_X": 305414.768, "Lat": 2766408.362, "網址": "http://web.syinlu.org.tw/" }, "geometry": { "type": "Point", "coordinates": [ 121.549002594965856, 25.004681898418337 ] } },
{ "type": "Feature", "properties": { "序號": 28, "行政區": "士林區", "屬性": "私立", "機構名稱": "臺北市私立自立社區學園", "機構類型": "日間服務", "成人日間照顧床位數量": 0, "全日型住宿床位數量": 0, "早療日間照顧": 0, "夜間型住宿床位數量": 0, "緊急短期安置床位數量": 0, "地址": "臺北市士林區德行西路93巷7號B1-1", "Lng_X": 302533.862, "Lat": 2777494.899, "網址": null }, "geometry": { "type": "Point", "coordinates": [ 121.520884836518206, 25.104873113028091 ] } },
{ "type": "Feature", "properties": { "序號": 29, "行政區": "內湖區", "屬性": "私立", "機構名稱": "臺北市私立婦幼家園(兼辦早療服務)", "機構類型": "日間服務\n早期療育", "成人日間照顧床位數量": 0, "全日型住宿床位數量": 0, "早療日間照顧": 3, "夜間型住宿床位數量": 0, "緊急短期安置床位數量": 0, "地址": "臺北市內湖區民權東路六段180巷42弄6號", "Lng_X": 309757.995, "Lat": 2773367.651, "網址": null }, "geometry": { "type": "Point", "coordinates": [ 121.59233150051341, 25.067344310334668 ] } },
{ "type": "Feature", "properties": { "序號": 30, "行政區": "北投區", "屬性": "私立", "機構名稱": "臺北市私立陽明養護中心", "機構類型": "住宿服務", "成人日間照顧床位數量": 0, "全日型住宿床位數量": 0, "早療日間照顧": 0, "夜間型住宿床位數量": 0, "緊急短期安置床位數量": 0, "地址": "臺北市北投區公館路209巷18號", "Lng_X": 301303.037, "Lat": 2779998.475, "網址": "http://www.ymbt.org.tw" }, "geometry": { "type": "Point", "coordinates": [ 121.508774880811117, 25.127517465574918 ] } },
{ "type": "Feature", "properties": { "序號": 31, "行政區": "北投區", "屬性": "私立", "機構名稱": "臺北市私立至德聽語中心(提供早療服務)", "機構類型": "日間服務\n早期療育", "成人日間照顧床位數量": 0, "全日型住宿床位數量": 0, "早療日間照顧": 0, "夜間型住宿床位數量": 0, "緊急短期安置床位數量": 0, "地址": "臺北市北投區振興街45號(健康大樓3樓)", "Lng_X": 302681.293, "Lat": 2778898.838, "網址": "http://hh1314.org.tw/" }, "geometry": { "type": "Point", "coordinates": [ 121.522400461308081, 25.11754255148518 ] } },
{ "type": "Feature", "properties": { "序號": 32, "行政區": "北投區", "屬性": "私立", "機構名稱": "臺北市私立彩虹村家園", "機構類型": "住宿服務", "成人日間照顧床位數量": 0, "全日型住宿床位數量": 1, "早療日間照顧": 0, "夜間型住宿床位數量": 0, "緊急短期安置床位數量": 0, "地址": "臺北市北投區泉源路華南巷18號1樓", "Lng_X": 301121.597, "Lat": 2781411.001, "網址": null }, "geometry": { "type": "Point", "coordinates": [ 121.507028237436529, 25.140275725039356 ] } },
{ "type": "Feature", "properties": { "序號": 33, "行政區": "文山區", "屬性": "私立", "機構名稱": "臺北市私立文山創世清寒植物人安養院", "機構類型": "住宿服務", "成人日間照顧床位數量": 0, "全日型住宿床位數量": 49, "早療日間照顧": 0, "夜間型住宿床位數量": 0, "緊急短期安置床位數量": 0, "地址": "臺北市文山區萬和街6、8號5樓", "Lng_X": 307305.938, "Lat": 2766119.941, "網址": null }, "geometry": { "type": "Point", "coordinates": [ 121.567726025097997, 25.002007720177936 ] } },
{ "type": "Feature", "properties": { "序號": 34, "行政區": "信義區", "屬性": "私立", "機構名稱": "臺北市私立永愛發展中心", "機構類型": "住宿/日間照顧服務", "成人日間照顧床位數量": 2, "全日型住宿床位數量": 3, "早療日間照顧": 0, "夜間型住宿床位數量": 0, "緊急短期安置床位數量": 0, "地址": "臺北市信義區信義路5段150巷316號3-6樓", "Lng_X": 307483.804, "Lat": 2768879.037, "網址": null }, "geometry": { "type": "Point", "coordinates": [ 121.569602967193802, 25.026909874651018 ] } },
{ "type": "Feature", "properties": { "序號": 35, "行政區": "文山區", "屬性": "私立", "機構名稱": "臺北市私立世美家園", "機構類型": "住宿服務", "成人日間照顧床位數量": 12, "全日型住宿床位數量": 0, "早療日間照顧": 0, "夜間型住宿床位數量": 0, "緊急短期安置床位數量": 0, "地址": "臺北市文山區萬芳路51號", "Lng_X": 306914.625, "Lat": 2765688.225, "網址": "http://www.yko.com.tw/" }, "geometry": { "type": "Point", "coordinates": [ 121.56383167508362, 24.998124957340323 ] } },
{ "type": "Feature", "properties": { "序號": 36, "行政區": "松山區", "屬性": "私立", "機構名稱": "臺北市私立八德服務中心", "機構類型": "開放式服務", "成人日間照顧床位數量": 0, "全日型住宿床位數量": 0, "早療日間照顧": 0, "夜間型住宿床位數量": 0, "緊急短期安置床位數量": 0, "地址": "臺北市松山區八德路3段155巷4弄35號", "Lng_X": 306060.745, "Lat": 2771311.575, "網址": null }, "geometry": { "type": "Point", "coordinates": [ 121.555601426561267, 25.048923973845074 ] } },
{ "type": "Feature", "properties": { "序號": 37, "行政區": "文山區", "屬性": "私立", "機構名稱": "臺北市私立活泉之家", "機構類型": "開放式服務", "成人日間照顧床位數量": 0, "全日型住宿床位數量": 0, "早療日間照顧": 0, "夜間型住宿床位數量": 0, "緊急短期安置床位數量": 0, "地址": "臺北市文山區萬美街1段55號3樓", "Lng_X": 307345.293, "Lat": 2766157.284, "網址": null }, "geometry": { "type": "Point", "coordinates": [ 121.568117447694547, 25.002343361825933 ] } },
{ "type": "Feature", "properties": { "序號": 38, "行政區": "松山區", "屬性": "公設民營", "機構名稱": "臺北市慈祐發展中心", "機構類型": "日間服務", "成人日間照顧床位數量": 7, "全日型住宿床位數量": 0, "早療日間照顧": 0, "夜間型住宿床位數量": 0, "緊急短期安置床位數量": 0, "地址": "臺北市松山區八德路4段688號3-4樓", "Lng_X": 308207.686, "Lat": 2771424.162, "網址": "http://www.ican.org.tw" }, "geometry": { "type": "Point", "coordinates": [ 121.576883043662761, 25.049859290285813 ] } },
{ "type": "Feature", "properties": { "序號": 39, "行政區": "大同區", "屬性": "公設民營", "機構名稱": "臺北市大同發展中心(兼辦早療服務)", "機構類型": "早療服務\n日間服務", "成人日間照顧床位數量": 0, "全日型住宿床位數量": 0, "早療日間照顧": 0, "夜間型住宿床位數量": 0, "緊急短期安置床位數量": 0, "地址": "臺北市大同區昌吉街52號6-7樓", "Lng_X": 302092.076, "Lat": 2773166.875, "網址": "https://www.facebook.com/taipeiDaTong/" }, "geometry": { "type": "Point", "coordinates": [ 121.516340612401763, 25.065815418836131 ] } },
{ "type": "Feature", "properties": { "序號": 40, "行政區": "信義區", "屬性": "公設民營", "機構名稱": "臺北市政府社會局委託經營管理臺北市信義身障社區長照機構(日間照顧)", "機構類型": "服務項目：\n1、身體及生活照顧服務。\n2、協助及促進自我照顧能力。\n3、辦理預防及延緩失能程度惡化之各項活動。\n4、輔具衛教及操作指導。\n5、臨時及短期照顧或喘息服務。\n6、提供維護服務對象及其家庭照顧者各項權益措施、個案照顧管理及健康福利諮詢。\n7、依個案或家屬需求提供或連結交通接送服務。\n8、其他長期照顧服務項目。", "成人日間照顧床位數量": 16, "全日型住宿床位數量": 0, "早療日間照顧": 0, "夜間型住宿床位數量": 0, "緊急短期安置床位數量": 0, "地址": "臺北市信義區信義路5段15號5樓", "Lng_X": 307207.876, "Lat": 2769568.711, "網址": null }, "geometry": { "type": "Point", "coordinates": [ 121.566897529826406, 25.033146635918584 ] } },
{ "type": "Feature", "properties": { "序號": 41, "行政區": "松山區", "屬性": "公設民營", "機構名稱": "臺北市政府社會局委託經營管理臺北市民生身障社區長照機構(日間照顧)", "機構類型": "服務項目：\n1、身體及生活照顧服務。\n2、協助及促進自我照顧能力。\n3、辦理預防及延緩失能程度惡化之各項活動。\n4、輔具衛教及操作指導。\n5、臨時及短期照顧或喘息服務。\n6、提供維護服務對象及其家庭照顧者各項權益措施、個案照顧管理及健康福利諮詢。\n7、依個案或家屬需求提供或連結交通接送服務。\n8、其他長期照顧服務項目。", "成人日間照顧床位數量": 27, "全日型住宿床位數量": 0, "早療日間照顧": 0, "夜間型住宿床位數量": 0, "緊急短期安置床位數量": 0, "地址": "臺北市松山區民生東路5段163之1號7樓", "Lng_X": 306793.184, "Lat": 2772462.583, "網址": "https://www.eden.org.tw/branches_detail.php?detailId=JCUyNDMjIQ==&rePageUrl=L2JyYW5jaGVzLnBocD8mcGFnZT0xMA%3D%3D" }, "geometry": { "type": "Point", "coordinates": [ 121.562907597017883, 25.059287808800196 ] } },
{ "type": "Feature", "properties": { "序號": 42, "行政區": "松山區", "屬性": "私立", "機構名稱": "財團法人喜憨兒社會福利基金會附設臺北市私立松山身障社區長照機構(日間照顧)", "機構類型": "服務項目：\n1、身體及生活照顧服務。\n2、協助及促進自我照顧能力。\n3、辦理預防及延緩失能程度惡化之各項活動。\n4、輔具衛教及操作指導。\n5、臨時及短期照顧或喘息服務。\n6、提供維護服務對象及其家庭照顧者各項權益措施、個案照顧管理及健康福利諮詢。\n7、依個案或家屬需求提供或連結交通接送服務。\n8、其他長期照顧服務項目。", "成人日間照顧床位數量": 14, "全日型住宿床位數量": 0, "早療日間照顧": 0, "夜間型住宿床位數量": 0, "緊急短期安置床位數量": 0, "地址": "臺北市松山區南京東路5段356號6樓之2", "Lng_X": 307481.427, "Lat": 2771554.381, "網址": "http://www.c-are-us.org.tw/social_service/daytime_service/72" }, "geometry": { "type": "Point", "coordinates": [ 121.569690972932946, 25.051062668632078 ] } },
{ "type": "Feature", "properties": { "序號": 43, "行政區": "士林區", "屬性": "私立", "機構名稱": "財團法人廣青文教基金會附設臺北市私立士林身障社區長照機構(日間照顧)", "機構類型": "服務項目：\n1、身體及生活照顧服務。\n2、協助及促進自我照顧能力。\n3、辦理預防及延緩失能程度惡化之各項活動。\n4、輔具衛教及操作指導。\n5、臨時及短期照顧或喘息服務。\n6、提供維護服務對象及其家庭照顧者各項權益措施、個案照顧管理及健康福利諮詢。\n7、依個案或家屬需求提供或連結交通接送服務。\n8、其他長期照顧服務項目。", "成人日間照顧床位數量": 5, "全日型住宿床位數量": 0, "早療日間照顧": 0, "夜間型住宿床位數量": 0, "緊急短期安置床位數量": 0, "地址": "臺北市士林區後港街189號1樓", "Lng_X": 302549.449, "Lat": 2775631.191, "網址": null }, "geometry": { "type": "Point", "coordinates": [ 121.520968114490614, 25.08804721834192 ] } },
{ "type": "Feature", "properties": { "序號": 44, "行政區": "中山區", "屬性": "公設民營", "機構名稱": "臺北市政府社會局委託財團法人喜憨兒社會福利基金會經營管理中山身障社區長照機構(日間照顧)", "機構類型": "服務項目：\n1、身體及生活照顧服務。\n2、協助及促進自我照顧能力。\n3、辦理預防及延緩失能程度惡化之各項活動。\n4、輔具衛教及操作指導。\n5、臨時及短期照顧或喘息服務。\n6、提供維護服務對象及其家庭照顧者各項權益措施、個案照顧管理及健康福利諮詢。\n7、依個案或家屬需求提供或連結交通接送服務。\n8、其他長期照顧服務項目。", "成人日間照顧床位數量": 20, "全日型住宿床位數量": 0, "早療日間照顧": 0, "夜間型住宿床位數量": 0, "緊急短期安置床位數量": 0, "地址": "臺北市中山區長安西路5巷2號4樓", "Lng_X": 302545.75, "Lat": 2771472.742, "網址": "https://www.c-are-us.org.tw/social_service/daytime_service/72" }, "geometry": { "type": "Point", "coordinates": [ 121.520772673572367, 25.050505186301294 ] } },
{ "type": "Feature", "properties": { "序號": 45, "行政區": "中正區", "屬性": "公設民營", "機構名稱": "臺北市南海發展中心", "機構類型": "日間服務", "成人日間照顧床位數量": 0, "全日型住宿床位數量": 0, "早療日間照顧": 0, "夜間型住宿床位數量": 0, "緊急短期安置床位數量": 0, "地址": "臺北市中正區延平南路207號1樓", "Lng_X": 301230.478, "Lat": 2769516.078, "網址": null }, "geometry": { "type": "Point", "coordinates": [ 121.507664899888582, 25.032885598188635 ] } },
{ "type": "Feature", "properties": { "序號": 46, "行政區": "文山區", "屬性": "公設民營", "機構名稱": "臺北市興隆團體家庭", "機構類型": "住宿服務", "成人日間照顧床位數量": 0, "全日型住宿床位數量": 0, "早療日間照顧": 0, "夜間型住宿床位數量": 4, "緊急短期安置床位數量": 2, "地址": "臺北市文山區木柵路2段138巷33號3樓", "Lng_X": 306765.413, "Lat": 2764569.998, "網址": null }, "geometry": { "type": "Point", "coordinates": [ 121.562307609790153, 24.988035249850189 ] } },
{ "type": "Feature", "properties": { "序號": 47, "行政區": "文山區", "屬性": "公設民營", "機構名稱": "臺北市興隆照顧中心", "機構類型": "住宿服務", "成人日間照顧床位數量": 0, "全日型住宿床位數量": 1, "早療日間照顧": 0, "夜間型住宿床位數量": 0, "緊急短期安置床位數量": 0, "地址": "臺北市文山區興隆路4段105巷45號2樓", "Lng_X": 306786.188, "Lat": 2764584.703, "網址": "https://www.facebook.com/276461929214711/" }, "geometry": { "type": "Point", "coordinates": [ 121.562513999363901, 24.988167228272072 ] } }
]
}
